{
  "venues":[
    {
      "id": "b2a96a9d-5a71-4cc1-adb3-c30b41fd1e8d",
      "image": "https://picsum.photos/id/278/500/800",
      "location": {
        "postalCode": "72-1189",
        "city": "Port Abraham"
      },
      "pricePerNightInEUR": 3568,
      "rating": 0.7,
      "capacity": 16,
      "name": "Mills Group",
      "albumId": 278
    },
    {
      "id": "359fe946-61fc-4a74-ba5d-d474f69e936d",
      "image": "https://picsum.photos/id/137/500/800",
      "location": {
        "postalCode": "00-4221",
        "city": "Gusikowskitown"
      },
      "pricePerNightInEUR": 173,
      "rating": 0.1,
      "capacity": 6,
      "name": "Robel Inc",
      "albumId": 137
    },
    {
      "id": "757b732c-d1d9-4b98-8190-fe2d70ea4bfc",
      "image": "https://picsum.photos/id/66/500/800",
      "location": {
        "postalCode": "78-4442",
        "city": "Chelsiefort"
      },
      "pricePerNightInEUR": 2235,
      "rating": 0,
      "capacity": 3,
      "name": "Gibson, Kirlin and Schowalter",
      "albumId": 66
    },
    {
      "id": "ecd24d7c-0ad4-4fc2-9d19-9637275ab895",
      "image": "https://picsum.photos/id/160/500/800",
      "location": {
        "postalCode": "45-6217",
        "city": "Port Camilletown"
      },
      "pricePerNightInEUR": 3246,
      "rating": 0.1,
      "capacity": 20,
      "name": "Langworth and Sons",
      "albumId": 160
    },
    {
      "id": "633f59a4-af7d-4050-a85c-b41fd65ea3b3",
      "image": "https://picsum.photos/id/4/500/800",
      "location": {
        "postalCode": "57-8679",
        "city": "Rippinstad"
      },
      "pricePerNightInEUR": 1889,
      "rating": 0.4,
      "capacity": 18,
      "name": "Swaniawski - Ratke",
      "albumId": 4
    },
    {
      "id": "047d7b31-bc64-4ef2-9ffe-3140f079be13",
      "image": "https://picsum.photos/id/109/500/800",
      "location": {
        "postalCode": "51-7780",
        "city": "Tavareshaven"
      },
      "pricePerNightInEUR": 3906,
      "rating": 0.2,
      "capacity": 4,
      "name": "Mante, Cruickshank and Marks",
      "albumId": 109
    },
    {
      "id": "802cacce-c7c3-490a-b16a-d3d00dfb8083",
      "image": "https://picsum.photos/id/208/500/800",
      "location": {
        "postalCode": "64-2636",
        "city": "North Gino"
      },
      "pricePerNightInEUR": 2079,
      "rating": 0.2,
      "capacity": 3,
      "name": "Lind, Johnson and Rice",
      "albumId": 208
    },
    {
      "id": "e0d157fc-8550-4039-aac5-2cc2bca31105",
      "image": "https://picsum.photos/id/20/500/800",
      "location": {
        "postalCode": "13-4872",
        "city": "Gleichnerberg"
      },
      "pricePerNightInEUR": 1706,
      "rating": 0,
      "capacity": 9,
      "name": "Ferry LLC",
      "albumId": 20
    },
    {
      "id": "ce8f1dfc-b7e3-49fd-a33d-0f91445089e7",
      "image": "https://picsum.photos/id/307/500/800",
      "location": {
        "postalCode": "40-6542",
        "city": "Littleland"
      },
      "pricePerNightInEUR": 1490,
      "rating": 0.3,
      "capacity": 17,
      "name": "Mraz Inc",
      "albumId": 307
    },
    {
      "id": "40e2a680-bcf5-4b62-b674-39e21268c8a4",
      "image": "https://picsum.photos/id/396/500/800",
      "location": {
        "postalCode": "11-6782",
        "city": "Kubstead"
      },
      "pricePerNightInEUR": 2008,
      "rating": 0.5,
      "capacity": 4,
      "name": "Skiles - Klein",
      "albumId": 396
    },
    {
      "id": "dfc5a333-0232-4613-93a5-9be55772090e",
      "image": "https://picsum.photos/id/117/500/800",
      "location": {
        "postalCode": "14-2007",
        "city": "Luettgenside"
      },
      "pricePerNightInEUR": 988,
      "rating": 0.5,
      "capacity": 9,
      "name": "Veum - Aufderhar",
      "albumId": 117
    },
    {
      "id": "9452c485-ccfc-4a27-b2f6-d74db0ee3111",
      "image": "https://picsum.photos/id/97/500/800",
      "location": {
        "postalCode": "17-0809",
        "city": "Monahanborough"
      },
      "pricePerNightInEUR": 1393,
      "rating": 0.7,
      "capacity": 10,
      "name": "Jerde - Adams",
      "albumId": 97
    },
    {
      "id": "a92dcb81-ae78-4af0-a12e-82ec72dc95b6",
      "image": "https://picsum.photos/id/18/500/800",
      "location": {
        "postalCode": "93-7260",
        "city": "Meriden"
      },
      "pricePerNightInEUR": 1970,
      "rating": 0.2,
      "capacity": 18,
      "name": "Deckow - Romaguera",
      "albumId": 18
    },
    {
      "id": "226b9f20-6c6d-4137-90b9-c8f75ce91e2a",
      "image": "https://picsum.photos/id/38/500/800",
      "location": {
        "postalCode": "84-8980",
        "city": "Port Renee"
      },
      "pricePerNightInEUR": 1187,
      "rating": 0.2,
      "capacity": 2,
      "name": "Lemke Group",
      "albumId": 38
    },
    {
      "id": "0483bc99-2cdf-444b-9a75-91b1e3a84e7e",
      "image": "https://picsum.photos/id/101/500/800",
      "location": {
        "postalCode": "43-7239",
        "city": "Nitzschefort"
      },
      "pricePerNightInEUR": 1031,
      "rating": 1,
      "capacity": 14,
      "name": "Fadel, Durgan and Jacobi",
      "albumId": 101
    },
    {
      "id": "9c5b53a6-8dd2-489a-81c1-665d9af82e43",
      "image": "https://picsum.photos/id/255/500/800",
      "location": {
        "postalCode": "30-2566",
        "city": "Potomac"
      },
      "pricePerNightInEUR": 2281,
      "rating": 1,
      "capacity": 6,
      "name": "Fritsch Inc",
      "albumId": 255
    },
    {
      "id": "d00eb4af-80db-4aae-b929-63744832f5c4",
      "image": "https://picsum.photos/id/57/500/800",
      "location": {
        "postalCode": "27-8404",
        "city": "Des Plaines"
      },
      "pricePerNightInEUR": 4567,
      "rating": 0.2,
      "capacity": 15,
      "name": "Walker - Kreiger",
      "albumId": 57
    },
    {
      "id": "c3c0906a-8982-47a7-9c9a-e941fb439224",
      "image": "https://picsum.photos/id/126/500/800",
      "location": {
        "postalCode": "01-2240",
        "city": "North Johnpaul"
      },
      "pricePerNightInEUR": 3525,
      "rating": 0.1,
      "capacity": 9,
      "name": "Rohan - Walsh",
      "albumId": 126
    },
    {
      "id": "0827ebe5-9cad-4357-bc5c-0bc32b6f739a",
      "image": "https://picsum.photos/id/191/500/800",
      "location": {
        "postalCode": "23-4326",
        "city": "Rochester Hills"
      },
      "pricePerNightInEUR": 3399,
      "rating": 0.7,
      "capacity": 18,
      "name": "Goyette - Franey",
      "albumId": 191
    },
    {
      "id": "b6c6d3e5-1ea8-4b76-a3a0-1319dcc2e3cc",
      "image": "https://picsum.photos/id/272/500/800",
      "location": {
        "postalCode": "95-9657",
        "city": "Hoegerboro"
      },
      "pricePerNightInEUR": 2203,
      "rating": 0.7,
      "capacity": 10,
      "name": "Stracke Group",
      "albumId": 272
    },
    {
      "id": "cdcbabf4-4e2a-4fec-819b-0cd5ee08e77d",
      "image": "https://picsum.photos/id/102/500/800",
      "location": {
        "postalCode": "66-8153",
        "city": "Ubaldoview"
      },
      "pricePerNightInEUR": 2167,
      "rating": 0.4,
      "capacity": 13,
      "name": "Robel, Lockman and Jast",
      "albumId": 102
    },
    {
      "id": "00c45e5a-bc3b-458a-a3e7-44542fdee95f",
      "image": "https://picsum.photos/id/370/500/800",
      "location": {
        "postalCode": "93-0126",
        "city": "Port Jovani"
      },
      "pricePerNightInEUR": 4768,
      "rating": 0.2,
      "capacity": 17,
      "name": "Metz - Powlowski",
      "albumId": 370
    },
    {
      "id": "4b1aeedb-c89f-48b1-9583-332e4f4c828f",
      "image": "https://picsum.photos/id/325/500/800",
      "location": {
        "postalCode": "15-0851",
        "city": "Lake Constantinshire"
      },
      "pricePerNightInEUR": 3479,
      "rating": 0.2,
      "capacity": 11,
      "name": "Bartoletti, Herman and McKenzie",
      "albumId": 325
    },
    {
      "id": "955d71eb-256d-4077-95aa-3f2d5edd305f",
      "image": "https://picsum.photos/id/20/500/800",
      "location": {
        "postalCode": "02-0120",
        "city": "Kirlinton"
      },
      "pricePerNightInEUR": 3482,
      "rating": 0.6,
      "capacity": 7,
      "name": "Bernhard, O'Conner and Schmitt",
      "albumId": 20
    },
    {
      "id": "b198c6ab-debd-4ba1-8220-fa00496f5d38",
      "image": "https://picsum.photos/id/184/500/800",
      "location": {
        "postalCode": "56-3687",
        "city": "East Mayworth"
      },
      "pricePerNightInEUR": 3150,
      "rating": 0.4,
      "capacity": 6,
      "name": "Murazik, Wilkinson and Kuhlman",
      "albumId": 184
    },
    {
      "id": "8a7765f9-1eea-4a61-b22f-4f238c0c750f",
      "image": "https://picsum.photos/id/62/500/800",
      "location": {
        "postalCode": "30-8342",
        "city": "Lake Bonnie"
      },
      "pricePerNightInEUR": 4073,
      "rating": 0.4,
      "capacity": 10,
      "name": "Roob and Sons",
      "albumId": 62
    },
    {
      "id": "16776cc7-8d14-4e23-87ab-e91be090f999",
      "image": "https://picsum.photos/id/190/500/800",
      "location": {
        "postalCode": "75-5886",
        "city": "Fort Evangeline"
      },
      "pricePerNightInEUR": 1753,
      "rating": 0.4,
      "capacity": 8,
      "name": "Homenick, Lang and Brown",
      "albumId": 190
    },
    {
      "id": "0e3659bb-b574-49b5-98c6-3f302e3b9ff0",
      "image": "https://picsum.photos/id/170/500/800",
      "location": {
        "postalCode": "23-6106",
        "city": "Covina"
      },
      "pricePerNightInEUR": 3020,
      "rating": 0,
      "capacity": 1,
      "name": "Medhurst Inc",
      "albumId": 170
    },
    {
      "id": "30741a8e-8c59-468e-bd8e-3385c28e25b5",
      "image": "https://picsum.photos/id/71/500/800",
      "location": {
        "postalCode": "30-8875",
        "city": "Mayertshire"
      },
      "pricePerNightInEUR": 1804,
      "rating": 0.5,
      "capacity": 7,
      "name": "Schiller Inc",
      "albumId": 71
    },
    {
      "id": "7b87e12b-b8e7-4f7b-b623-e9efc9764a6b",
      "image": "https://picsum.photos/id/78/500/800",
      "location": {
        "postalCode": "01-6849",
        "city": "Dimitritown"
      },
      "pricePerNightInEUR": 4518,
      "rating": 0.3,
      "capacity": 5,
      "name": "Ritchie Inc",
      "albumId": 78
    },
    {
      "id": "ac4067b9-2002-458e-9987-d1afe880752a",
      "image": "https://picsum.photos/id/201/500/800",
      "location": {
        "postalCode": "85-7622",
        "city": "Coral Springs"
      },
      "pricePerNightInEUR": 4085,
      "rating": 0.4,
      "capacity": 6,
      "name": "Braun, Willms and Steuber",
      "albumId": 201
    },
    {
      "id": "9de4b442-463c-42ad-a76c-46940bfd7f41",
      "image": "https://picsum.photos/id/373/500/800",
      "location": {
        "postalCode": "01-6580",
        "city": "Wilfredhaven"
      },
      "pricePerNightInEUR": 1142,
      "rating": 1,
      "capacity": 19,
      "name": "Wilderman - Ward",
      "albumId": 373
    },
    {
      "id": "5646f570-0959-458e-ac5a-bdb5e103fa1f",
      "image": "https://picsum.photos/id/5/500/800",
      "location": {
        "postalCode": "61-6949",
        "city": "South Ryann"
      },
      "pricePerNightInEUR": 1487,
      "rating": 0.8,
      "capacity": 9,
      "name": "Schaden - Durgan",
      "albumId": 5
    },
    {
      "id": "55ee5420-4062-4198-abef-780c4b37b706",
      "image": "https://picsum.photos/id/344/500/800",
      "location": {
        "postalCode": "88-3321",
        "city": "Fort Elwynfurt"
      },
      "pricePerNightInEUR": 789,
      "rating": 0.9,
      "capacity": 2,
      "name": "Moen, Larson and Pagac",
      "albumId": 344
    },
    {
      "id": "07ec84f6-23b9-4b0a-8f11-79f478bbc970",
      "image": "https://picsum.photos/id/266/500/800",
      "location": {
        "postalCode": "92-8749",
        "city": "Port Asachester"
      },
      "pricePerNightInEUR": 1972,
      "rating": 0.4,
      "capacity": 19,
      "name": "Murazik - Wolf",
      "albumId": 266
    },
    {
      "id": "ddb06b20-8b6f-400b-88fd-78ec7e037842",
      "image": "https://picsum.photos/id/282/500/800",
      "location": {
        "postalCode": "50-5421",
        "city": "Oshkosh"
      },
      "pricePerNightInEUR": 931,
      "rating": 0.5,
      "capacity": 2,
      "name": "Stanton, Lubowitz and Bosco",
      "albumId": 282
    },
    {
      "id": "8b41ea49-140e-4af0-8336-1b6cc7912f61",
      "image": "https://picsum.photos/id/176/500/800",
      "location": {
        "postalCode": "31-3279",
        "city": "Blazechester"
      },
      "pricePerNightInEUR": 4040,
      "rating": 0.6,
      "capacity": 9,
      "name": "Raynor Inc",
      "albumId": 176
    },
    {
      "id": "68aeccce-9cf2-4974-88c0-2f8f62ec5dc3",
      "image": "https://picsum.photos/id/291/500/800",
      "location": {
        "postalCode": "32-8313",
        "city": "Belleton"
      },
      "pricePerNightInEUR": 3021,
      "rating": 0.7,
      "capacity": 8,
      "name": "Kemmer, O'Connell and Block",
      "albumId": 291
    },
    {
      "id": "3e85d514-008c-4bb1-98d0-a32c2653e0b0",
      "image": "https://picsum.photos/id/50/500/800",
      "location": {
        "postalCode": "13-3624",
        "city": "Largo"
      },
      "pricePerNightInEUR": 1664,
      "rating": 0.5,
      "capacity": 3,
      "name": "Feil Inc",
      "albumId": 50
    },
    {
      "id": "129fb020-2664-4293-9dab-f1c5102f08c4",
      "image": "https://picsum.photos/id/68/500/800",
      "location": {
        "postalCode": "63-7227",
        "city": "Lake Alison"
      },
      "pricePerNightInEUR": 4905,
      "rating": 0,
      "capacity": 15,
      "name": "Mertz, Stark and Muller",
      "albumId": 68
    },
    {
      "id": "643e15f3-3802-4673-babb-75b28afd4ac3",
      "image": "https://picsum.photos/id/125/500/800",
      "location": {
        "postalCode": "53-8653",
        "city": "West Orieport"
      },
      "pricePerNightInEUR": 4013,
      "rating": 0.4,
      "capacity": 7,
      "name": "Wyman Inc",
      "albumId": 125
    },
    {
      "id": "3e39b72c-3af8-4afa-a0b9-f317ca25a6a6",
      "image": "https://picsum.photos/id/258/500/800",
      "location": {
        "postalCode": "55-2036",
        "city": "Stokeshaven"
      },
      "pricePerNightInEUR": 3318,
      "rating": 0.3,
      "capacity": 7,
      "name": "Medhurst and Sons",
      "albumId": 258
    },
    {
      "id": "a1f7d58a-9fd6-404b-939f-58480fc111e4",
      "image": "https://picsum.photos/id/178/500/800",
      "location": {
        "postalCode": "68-0668",
        "city": "Port Lincoln"
      },
      "pricePerNightInEUR": 1921,
      "rating": 0.3,
      "capacity": 12,
      "name": "Connelly Group",
      "albumId": 178
    },
    {
      "id": "ac8017e5-792c-4f86-aa47-9250c6d9e8cd",
      "image": "https://picsum.photos/id/382/500/800",
      "location": {
        "postalCode": "76-4543",
        "city": "Bednarboro"
      },
      "pricePerNightInEUR": 1685,
      "rating": 1,
      "capacity": 10,
      "name": "Kuphal - Thiel",
      "albumId": 382
    },
    {
      "id": "915b3579-47c7-4b62-aaa2-14494011c6be",
      "image": "https://picsum.photos/id/345/500/800",
      "location": {
        "postalCode": "92-6037",
        "city": "Creolachester"
      },
      "pricePerNightInEUR": 3107,
      "rating": 0.3,
      "capacity": 18,
      "name": "Shields Inc",
      "albumId": 345
    },
    {
      "id": "64a378a9-19f3-41c5-965d-7ef418e017f6",
      "image": "https://picsum.photos/id/325/500/800",
      "location": {
        "postalCode": "33-1776",
        "city": "Eldridgefurt"
      },
      "pricePerNightInEUR": 2016,
      "rating": 0.6,
      "capacity": 3,
      "name": "Dach - Prosacco",
      "albumId": 325
    },
    {
      "id": "b290b0e0-c0c7-48cc-9221-df8430f9d3c5",
      "image": "https://picsum.photos/id/117/500/800",
      "location": {
        "postalCode": "90-9772",
        "city": "Port Solon"
      },
      "pricePerNightInEUR": 2028,
      "rating": 0.7,
      "capacity": 1,
      "name": "Bauch - Franecki",
      "albumId": 117
    },
    {
      "id": "e15d5301-1fca-4aaf-84ff-173ad8cbed40",
      "image": "https://picsum.photos/id/87/500/800",
      "location": {
        "postalCode": "60-4768",
        "city": "Jarretworth"
      },
      "pricePerNightInEUR": 406,
      "rating": 0.7,
      "capacity": 18,
      "name": "Padberg - Gutkowski",
      "albumId": 87
    },
    {
      "id": "4fd48766-ea78-443e-8bb5-38b415585302",
      "image": "https://picsum.photos/id/254/500/800",
      "location": {
        "postalCode": "22-9358",
        "city": "Sunnyvale"
      },
      "pricePerNightInEUR": 405,
      "rating": 0.4,
      "capacity": 10,
      "name": "Ziemann - Wolff",
      "albumId": 254
    },
    {
      "id": "36b06f0b-0b67-4dde-a876-e217867fd47e",
      "image": "https://picsum.photos/id/222/500/800",
      "location": {
        "postalCode": "07-2786",
        "city": "West Rebecaborough"
      },
      "pricePerNightInEUR": 2690,
      "rating": 0.2,
      "capacity": 13,
      "name": "Rohan - Bartoletti",
      "albumId": 222
    }
  ],
  "venuesDetails":[
    {
      "id": "bd241b06-9f79-4d58-978f-c1f5acd79cc2",
      "venueId": "b2a96a9d-5a71-4cc1-adb3-c30b41fd1e8d",
      "location": {
        "postalCode": "72-1189",
        "city": "Port Abraham"
      },
      "pricePerNightInEUR": 3568,
      "rating": 0.7,
      "numberOfReviews": 272,
      "capacity": 16,
      "name": "Mills Group",
      "albumId": 278,
      "description": "Provident error minima dolor sapiente explicabo voluptatibus minus impedit quasi.\nLaboriosam molestiae voluptas et excepturi sunt.\nVoluptatibus suscipit voluptates eum amet.\nNisi quod inventore quasi mollitia excepturi perferendis reiciendis rerum.",
      "features": [
        "natural",
        "flaky",
        "gullible",
        "gaseous"
      ],
      "sleepingDetails": {
        "maxCapacity": 2,
        "amountOfBeds": 3
      },
      "checkInHour": "15:00",
      "checkOutHour": "12:00",
      "distanceFromCityCenterInKM": "6km",
      "contactDetails": {
        "phone": "22-137727-177171-4",
        "email": "Fernando38@hotmail.com"
      }
    },
    {
      "id": "74408a02-1ecb-450e-b942-97188f0d76db",
      "venueId": "359fe946-61fc-4a74-ba5d-d474f69e936d",
      "location": {
        "postalCode": "00-4221",
        "city": "Gusikowskitown"
      },
      "pricePerNightInEUR": 173,
      "rating": 0.1,
      "numberOfReviews": 77,
      "capacity": 6,
      "name": "Robel Inc",
      "albumId": 137,
      "description": "Quaerat itaque quo consequuntur.\nNisi itaque exercitationem distinctio dicta accusantium doloribus exercitationem voluptatibus.\nVelit doloremque dicta exercitationem.\nAb illum voluptatem excepturi occaecati amet.",
      "features": [
        "worthless",
        "young",
        "unusual",
        "unfit"
      ],
      "sleepingDetails": {
        "maxCapacity": 1,
        "amountOfBeds": 1
      },
      "checkInHour": "15:00",
      "checkOutHour": "12:00",
      "distanceFromCityCenterInKM": "6km",
      "contactDetails": {
        "phone": "37-570114-343976-8",
        "email": "Braden_Daniel@gmail.com"
      }
    },
    {
      "id": "a3e6afcb-416e-4e4a-acb8-0f6848d4350d",
      "venueId": "757b732c-d1d9-4b98-8190-fe2d70ea4bfc",
      "location": {
        "postalCode": "78-4442",
        "city": "Chelsiefort"
      },
      "pricePerNightInEUR": 2235,
      "rating": 0,
      "numberOfReviews": 245,
      "capacity": 3,
      "name": "Gibson, Kirlin and Schowalter",
      "albumId": 66,
      "description": "Illo quisquam odit.\nUt blanditiis quibusdam atque a.\nTempore sunt sed quod voluptate voluptate sit modi dolore aliquam.",
      "features": [
        "grouchy",
        "shoddy",
        "violent",
        "phony"
      ],
      "sleepingDetails": {
        "maxCapacity": 2,
        "amountOfBeds": 1
      },
      "checkInHour": "15:00",
      "checkOutHour": "12:00",
      "distanceFromCityCenterInKM": "3km",
      "contactDetails": {
        "phone": "12-373015-541357-2",
        "email": "Frida5@gmail.com"
      }
    },
    {
      "id": "88281463-32df-41c8-bd46-5757f68128ec",
      "venueId": "ecd24d7c-0ad4-4fc2-9d19-9637275ab895",
      "location": {
        "postalCode": "45-6217",
        "city": "Port Camilletown"
      },
      "pricePerNightInEUR": 3246,
      "rating": 0.1,
      "numberOfReviews": 49,
      "capacity": 20,
      "name": "Langworth and Sons",
      "albumId": 160,
      "description": "Animi facilis distinctio aspernatur ipsam.\nExpedita nemo natus unde aliquam neque eos.\nReiciendis quae dolor perferendis voluptatibus sit eveniet.\nPlaceat fugiat dignissimos voluptate.\nRepellat laudantium unde.",
      "features": [
        "harsh",
        "luminous",
        "impressionable",
        "blissful"
      ],
      "sleepingDetails": {
        "maxCapacity": 2,
        "amountOfBeds": 4
      },
      "checkInHour": "15:00",
      "checkOutHour": "12:00",
      "distanceFromCityCenterInKM": "3km",
      "contactDetails": {
        "phone": "01-959124-598287-8",
        "email": "Bobby94@gmail.com"
      }
    },
    {
      "id": "ad514df6-0eb4-46d0-95f4-8afb69f27af1",
      "venueId": "633f59a4-af7d-4050-a85c-b41fd65ea3b3",
      "location": {
        "postalCode": "57-8679",
        "city": "Rippinstad"
      },
      "pricePerNightInEUR": 1889,
      "rating": 0.4,
      "numberOfReviews": 28,
      "capacity": 18,
      "name": "Swaniawski - Ratke",
      "albumId": 4,
      "description": "Error beatae reprehenderit nobis aspernatur possimus eveniet quibusdam incidunt.\nEsse nostrum modi nesciunt ipsum velit nisi necessitatibus consequatur.\nFacilis tempora quibusdam tenetur animi eaque inventore unde quisquam eum.\nError doloribus odio unde laborum distinctio esse.\nSit nostrum consectetur soluta neque.",
      "features": [
        "general",
        "bossy",
        "immediate",
        "miserly"
      ],
      "sleepingDetails": {
        "maxCapacity": 4,
        "amountOfBeds": 3
      },
      "checkInHour": "15:00",
      "checkOutHour": "12:00",
      "distanceFromCityCenterInKM": "5km",
      "contactDetails": {
        "phone": "36-340455-864203-4",
        "email": "Andres.Prohaska69@gmail.com"
      }
    },
    {
      "id": "856e4de0-475c-4e36-88d3-2b28bc0e9a2d",
      "venueId": "047d7b31-bc64-4ef2-9ffe-3140f079be13",
      "location": {
        "postalCode": "51-7780",
        "city": "Tavareshaven"
      },
      "pricePerNightInEUR": 3906,
      "rating": 0.2,
      "numberOfReviews": 292,
      "capacity": 4,
      "name": "Mante, Cruickshank and Marks",
      "albumId": 109,
      "description": "Quo vel harum pariatur molestiae.\nSequi minus quisquam enim ipsam deleniti adipisci hic maiores.\nDolore veniam omnis a aut doloremque ad eveniet aperiam itaque.",
      "features": [
        "peppery",
        "fast",
        "simplistic",
        "uncommon"
      ],
      "sleepingDetails": {
        "maxCapacity": 4,
        "amountOfBeds": 4
      },
      "checkInHour": "15:00",
      "checkOutHour": "12:00",
      "distanceFromCityCenterInKM": "1km",
      "contactDetails": {
        "phone": "85-275763-041370-0",
        "email": "Misael34@hotmail.com"
      }
    },
    {
      "id": "f21422b3-d0ab-4f85-852e-0f4fc0955eca",
      "venueId": "802cacce-c7c3-490a-b16a-d3d00dfb8083",
      "location": {
        "postalCode": "64-2636",
        "city": "North Gino"
      },
      "pricePerNightInEUR": 2079,
      "rating": 0.2,
      "numberOfReviews": 234,
      "capacity": 3,
      "name": "Lind, Johnson and Rice",
      "albumId": 208,
      "description": "Quam voluptates ratione alias eum blanditiis.\nDolorem nesciunt aut.\nDoloribus harum pariatur enim adipisci aliquam eum maiores voluptatibus dolores.\nDicta quidem fuga.\nEt nemo iure.",
      "features": [
        "ill-fated",
        "advanced",
        "admirable",
        "second-hand"
      ],
      "sleepingDetails": {
        "maxCapacity": 2,
        "amountOfBeds": 3
      },
      "checkInHour": "15:00",
      "checkOutHour": "12:00",
      "distanceFromCityCenterInKM": "2km",
      "contactDetails": {
        "phone": "73-247866-282354-4",
        "email": "Kenna.Shanahan78@yahoo.com"
      }
    },
    {
      "id": "45d12bcc-20b5-4f20-9699-a87404f0e475",
      "venueId": "e0d157fc-8550-4039-aac5-2cc2bca31105",
      "location": {
        "postalCode": "13-4872",
        "city": "Gleichnerberg"
      },
      "pricePerNightInEUR": 1706,
      "rating": 0,
      "numberOfReviews": 294,
      "capacity": 9,
      "name": "Ferry LLC",
      "albumId": 20,
      "description": "Veniam corrupti distinctio qui nihil ex reprehenderit possimus.\nDolore velit saepe fuga explicabo itaque suscipit.\nNatus labore voluptatum quam temporibus consectetur impedit.\nSimilique inventore alias atque blanditiis dolores consectetur laboriosam qui.",
      "features": [
        "rural",
        "half",
        "critical",
        "merry"
      ],
      "sleepingDetails": {
        "maxCapacity": 3,
        "amountOfBeds": 1
      },
      "checkInHour": "15:00",
      "checkOutHour": "12:00",
      "distanceFromCityCenterInKM": "10km",
      "contactDetails": {
        "phone": "13-922164-483505-6",
        "email": "Gretchen.Schuster@hotmail.com"
      }
    },
    {
      "id": "8c36e79e-a860-41f2-8419-329d35432a9d",
      "venueId": "ce8f1dfc-b7e3-49fd-a33d-0f91445089e7",
      "location": {
        "postalCode": "40-6542",
        "city": "Littleland"
      },
      "pricePerNightInEUR": 1490,
      "rating": 0.3,
      "numberOfReviews": 74,
      "capacity": 17,
      "name": "Mraz Inc",
      "albumId": 307,
      "description": "Consequatur recusandae laborum unde dolor neque maxime a laudantium.\nEx fugiat nihil consequatur asperiores atque in.\nLabore asperiores dolorum.",
      "features": [
        "sparkling",
        "remorseful",
        "sweet",
        "bowed"
      ],
      "sleepingDetails": {
        "maxCapacity": 1,
        "amountOfBeds": 1
      },
      "checkInHour": "15:00",
      "checkOutHour": "12:00",
      "distanceFromCityCenterInKM": "2km",
      "contactDetails": {
        "phone": "48-632757-335890-0",
        "email": "Dave_Murphy69@gmail.com"
      }
    },
    {
      "id": "6e9ef2cc-ba95-41a3-95ef-2c98e6cd8d1d",
      "venueId": "40e2a680-bcf5-4b62-b674-39e21268c8a4",
      "location": {
        "postalCode": "11-6782",
        "city": "Kubstead"
      },
      "pricePerNightInEUR": 2008,
      "rating": 0.5,
      "numberOfReviews": 20,
      "capacity": 4,
      "name": "Skiles - Klein",
      "albumId": 396,
      "description": "Fugiat reprehenderit unde quisquam vel magni quo quia rem tenetur.\nEius delectus officiis aperiam.\nEt porro nihil possimus.\nSit aliquid necessitatibus quisquam.\nAlias iusto molestiae et.",
      "features": [
        "failing",
        "cuddly",
        "brave",
        "illiterate"
      ],
      "sleepingDetails": {
        "maxCapacity": 3,
        "amountOfBeds": 1
      },
      "checkInHour": "15:00",
      "checkOutHour": "12:00",
      "distanceFromCityCenterInKM": "7km",
      "contactDetails": {
        "phone": "41-700504-552822-7",
        "email": "Greg24@yahoo.com"
      }
    },
    {
      "id": "f388aace-bfca-422d-b0eb-53e97eee4d6c",
      "venueId": "dfc5a333-0232-4613-93a5-9be55772090e",
      "location": {
        "postalCode": "14-2007",
        "city": "Luettgenside"
      },
      "pricePerNightInEUR": 988,
      "rating": 0.5,
      "numberOfReviews": 211,
      "capacity": 9,
      "name": "Veum - Aufderhar",
      "albumId": 117,
      "description": "Autem cumque nostrum totam inventore vero in non.\nPossimus tempora odit deleniti totam eaque ab deleniti esse.\nAssumenda est modi.\nVoluptate iste provident totam sit cupiditate dignissimos omnis.\nMaiores iusto debitis.",
      "features": [
        "cloudy",
        "bite-sized",
        "detailed",
        "idolized"
      ],
      "sleepingDetails": {
        "maxCapacity": 4,
        "amountOfBeds": 4
      },
      "checkInHour": "15:00",
      "checkOutHour": "12:00",
      "distanceFromCityCenterInKM": "2km",
      "contactDetails": {
        "phone": "18-275240-001470-6",
        "email": "Kody_Lindgren72@gmail.com"
      }
    },
    {
      "id": "594baf67-05d2-4fbb-a7ca-eeb2bf0cc5a0",
      "venueId": "9452c485-ccfc-4a27-b2f6-d74db0ee3111",
      "location": {
        "postalCode": "17-0809",
        "city": "Monahanborough"
      },
      "pricePerNightInEUR": 1393,
      "rating": 0.7,
      "numberOfReviews": 241,
      "capacity": 10,
      "name": "Jerde - Adams",
      "albumId": 97,
      "description": "Id quasi natus nihil ducimus optio.\nNulla molestiae alias quidem odio exercitationem dolor totam quae eos.\nMolestias et aut.\nCommodi quibusdam quidem fugiat tempora quos.",
      "features": [
        "liquid",
        "scaly",
        "brief",
        "exciting"
      ],
      "sleepingDetails": {
        "maxCapacity": 3,
        "amountOfBeds": 3
      },
      "checkInHour": "15:00",
      "checkOutHour": "12:00",
      "distanceFromCityCenterInKM": "9km",
      "contactDetails": {
        "phone": "37-887095-211944-4",
        "email": "Mellie29@hotmail.com"
      }
    },
    {
      "id": "55268f28-27ae-4232-a30f-6a7cca1b828e",
      "venueId": "a92dcb81-ae78-4af0-a12e-82ec72dc95b6",
      "location": {
        "postalCode": "93-7260",
        "city": "Meriden"
      },
      "pricePerNightInEUR": 1970,
      "rating": 0.2,
      "numberOfReviews": 250,
      "capacity": 18,
      "name": "Deckow - Romaguera",
      "albumId": 18,
      "description": "Earum libero aliquam nobis neque voluptatibus nobis delectus blanditiis ipsa.\nArchitecto nemo dolor ab odit aliquam atque minus corrupti vero.\nInventore quis repellat nemo a ea.",
      "features": [
        "offbeat",
        "whole",
        "courteous",
        "sugary"
      ],
      "sleepingDetails": {
        "maxCapacity": 3,
        "amountOfBeds": 1
      },
      "checkInHour": "15:00",
      "checkOutHour": "12:00",
      "distanceFromCityCenterInKM": "6km",
      "contactDetails": {
        "phone": "32-061575-413818-6",
        "email": "Darren_Bode0@yahoo.com"
      }
    },
    {
      "id": "03fe293c-8c7a-48ca-801f-f37a25b33e11",
      "venueId": "226b9f20-6c6d-4137-90b9-c8f75ce91e2a",
      "location": {
        "postalCode": "84-8980",
        "city": "Port Renee"
      },
      "pricePerNightInEUR": 1187,
      "rating": 0.2,
      "numberOfReviews": 172,
      "capacity": 2,
      "name": "Lemke Group",
      "albumId": 38,
      "description": "Dolores laboriosam delectus eaque.\nAd voluptate architecto error qui consectetur.\nCupiditate aperiam minus occaecati doloremque suscipit tempore explicabo officiis et.\nHic quia veniam aspernatur autem esse saepe libero.",
      "features": [
        "glittering",
        "worried",
        "truthful",
        "novel"
      ],
      "sleepingDetails": {
        "maxCapacity": 3,
        "amountOfBeds": 4
      },
      "checkInHour": "15:00",
      "checkOutHour": "12:00",
      "distanceFromCityCenterInKM": "8km",
      "contactDetails": {
        "phone": "99-830708-403541-2",
        "email": "Benedict.Murphy67@gmail.com"
      }
    },
    {
      "id": "64489e55-c2db-4b07-b84a-a60fe76b493d",
      "venueId": "0483bc99-2cdf-444b-9a75-91b1e3a84e7e",
      "location": {
        "postalCode": "43-7239",
        "city": "Nitzschefort"
      },
      "pricePerNightInEUR": 1031,
      "rating": 1,
      "numberOfReviews": 82,
      "capacity": 14,
      "name": "Fadel, Durgan and Jacobi",
      "albumId": 101,
      "description": "Iusto et molestias.\nCumque magni nostrum nihil illum repellendus reiciendis.\nLabore optio aut recusandae id odit.\nDolores omnis numquam nisi deserunt.",
      "features": [
        "frizzy",
        "fine",
        "shady",
        "wee"
      ],
      "sleepingDetails": {
        "maxCapacity": 1,
        "amountOfBeds": 1
      },
      "checkInHour": "15:00",
      "checkOutHour": "12:00",
      "distanceFromCityCenterInKM": "1km",
      "contactDetails": {
        "phone": "41-609131-136697-2",
        "email": "Morgan.Kertzmann31@hotmail.com"
      }
    },
    {
      "id": "2f881494-90b0-4721-acb8-4e7d719996e1",
      "venueId": "9c5b53a6-8dd2-489a-81c1-665d9af82e43",
      "location": {
        "postalCode": "30-2566",
        "city": "Potomac"
      },
      "pricePerNightInEUR": 2281,
      "rating": 1,
      "numberOfReviews": 103,
      "capacity": 6,
      "name": "Fritsch Inc",
      "albumId": 255,
      "description": "Adipisci quo impedit.\nTemporibus voluptate rerum.\nRepellat atque cupiditate odit.\nId numquam pariatur eaque.\nEveniet non harum iste iusto.",
      "features": [
        "scrawny",
        "rare",
        "haunting",
        "bony"
      ],
      "sleepingDetails": {
        "maxCapacity": 3,
        "amountOfBeds": 1
      },
      "checkInHour": "15:00",
      "checkOutHour": "12:00",
      "distanceFromCityCenterInKM": "4km",
      "contactDetails": {
        "phone": "17-964329-017475-6",
        "email": "Jackeline73@hotmail.com"
      }
    },
    {
      "id": "c74e2b6f-095d-4ab9-9389-7f5391876b77",
      "venueId": "d00eb4af-80db-4aae-b929-63744832f5c4",
      "location": {
        "postalCode": "27-8404",
        "city": "Des Plaines"
      },
      "pricePerNightInEUR": 4567,
      "rating": 0.2,
      "numberOfReviews": 37,
      "capacity": 15,
      "name": "Walker - Kreiger",
      "albumId": 57,
      "description": "Quia molestias rerum dolorem ex repudiandae.\nDolores dignissimos recusandae quis iure similique consequatur unde corrupti id.\nFacere atque facere.",
      "features": [
        "staid",
        "relieved",
        "frivolous",
        "noted"
      ],
      "sleepingDetails": {
        "maxCapacity": 1,
        "amountOfBeds": 3
      },
      "checkInHour": "15:00",
      "checkOutHour": "12:00",
      "distanceFromCityCenterInKM": "3km",
      "contactDetails": {
        "phone": "44-213434-266779-0",
        "email": "Armand.Quitzon85@yahoo.com"
      }
    },
    {
      "id": "ca52ee3f-4d56-443f-a464-49f39dd17cbf",
      "venueId": "c3c0906a-8982-47a7-9c9a-e941fb439224",
      "location": {
        "postalCode": "01-2240",
        "city": "North Johnpaul"
      },
      "pricePerNightInEUR": 3525,
      "rating": 0.1,
      "numberOfReviews": 251,
      "capacity": 9,
      "name": "Rohan - Walsh",
      "albumId": 126,
      "description": "Veritatis recusandae fugit corporis.\nEos voluptatum cum.\nExercitationem dolore tenetur dignissimos neque commodi.\nReiciendis nam sapiente adipisci alias iusto.\nCumque impedit eum odio debitis officia impedit incidunt molestiae dolorem.",
      "features": [
        "starry",
        "rectangular",
        "outstanding",
        "vivacious"
      ],
      "sleepingDetails": {
        "maxCapacity": 1,
        "amountOfBeds": 1
      },
      "checkInHour": "15:00",
      "checkOutHour": "12:00",
      "distanceFromCityCenterInKM": "6km",
      "contactDetails": {
        "phone": "58-872756-702289-0",
        "email": "Kali53@hotmail.com"
      }
    },
    {
      "id": "42093945-a958-4548-a504-462ce24ae90b",
      "venueId": "0827ebe5-9cad-4357-bc5c-0bc32b6f739a",
      "location": {
        "postalCode": "23-4326",
        "city": "Rochester Hills"
      },
      "pricePerNightInEUR": 3399,
      "rating": 0.7,
      "numberOfReviews": 78,
      "capacity": 18,
      "name": "Goyette - Franey",
      "albumId": 191,
      "description": "Reprehenderit repellendus cumque accusantium.\nCum iste distinctio magnam error.\nIn at quibusdam minima architecto repellat.\nUt inventore fuga.",
      "features": [
        "moral",
        "arctic",
        "junior",
        "unimportant"
      ],
      "sleepingDetails": {
        "maxCapacity": 1,
        "amountOfBeds": 3
      },
      "checkInHour": "15:00",
      "checkOutHour": "12:00",
      "distanceFromCityCenterInKM": "8km",
      "contactDetails": {
        "phone": "42-329358-241114-6",
        "email": "Kaylah_McCullough@yahoo.com"
      }
    },
    {
      "id": "2ae43582-18fc-432f-b286-d23e1acf9f1c",
      "venueId": "b6c6d3e5-1ea8-4b76-a3a0-1319dcc2e3cc",
      "location": {
        "postalCode": "95-9657",
        "city": "Hoegerboro"
      },
      "pricePerNightInEUR": 2203,
      "rating": 0.7,
      "numberOfReviews": 176,
      "capacity": 10,
      "name": "Stracke Group",
      "albumId": 272,
      "description": "Molestias natus saepe est enim reiciendis at minus.\nAssumenda maiores ipsam odio ab neque inventore.\nLaborum dolorum labore vitae rem earum.\nVitae minima quo praesentium reprehenderit suscipit debitis corporis eveniet voluptas.\nAb voluptates minima aperiam ipsam et.",
      "features": [
        "gentle",
        "ornate",
        "pointed",
        "general"
      ],
      "sleepingDetails": {
        "maxCapacity": 4,
        "amountOfBeds": 2
      },
      "checkInHour": "15:00",
      "checkOutHour": "12:00",
      "distanceFromCityCenterInKM": "4km",
      "contactDetails": {
        "phone": "82-119192-026186-8",
        "email": "Daisy.Bins38@hotmail.com"
      }
    },
    {
      "id": "3aca378b-b0ae-4ed0-8123-f67f7b74d5f9",
      "venueId": "cdcbabf4-4e2a-4fec-819b-0cd5ee08e77d",
      "location": {
        "postalCode": "66-8153",
        "city": "Ubaldoview"
      },
      "pricePerNightInEUR": 2167,
      "rating": 0.4,
      "numberOfReviews": 298,
      "capacity": 13,
      "name": "Robel, Lockman and Jast",
      "albumId": 102,
      "description": "Aut debitis impedit quo molestias enim sequi facilis error.\nOccaecati consectetur laborum ducimus sequi repudiandae quibusdam quis.\nLaborum rem quos nemo inventore quod.\nOdit itaque neque corporis recusandae repudiandae odio ipsum optio.\nFacere sunt non aliquid ex.",
      "features": [
        "narrow",
        "petty",
        "critical",
        "faint"
      ],
      "sleepingDetails": {
        "maxCapacity": 2,
        "amountOfBeds": 4
      },
      "checkInHour": "15:00",
      "checkOutHour": "12:00",
      "distanceFromCityCenterInKM": "4km",
      "contactDetails": {
        "phone": "75-370441-402638-1",
        "email": "Gloria.Lueilwitz20@hotmail.com"
      }
    },
    {
      "id": "920d7fc6-f04d-4d9e-bbc1-8956449995b1",
      "venueId": "00c45e5a-bc3b-458a-a3e7-44542fdee95f",
      "location": {
        "postalCode": "93-0126",
        "city": "Port Jovani"
      },
      "pricePerNightInEUR": 4768,
      "rating": 0.2,
      "numberOfReviews": 230,
      "capacity": 17,
      "name": "Metz - Powlowski",
      "albumId": 370,
      "description": "Amet recusandae ratione aliquam facilis delectus repellendus.\nFacilis aliquid deleniti eveniet veniam.\nMinus nemo ipsa.\nExcepturi quibusdam amet maxime laborum assumenda.\nOptio rem placeat autem necessitatibus.",
      "features": [
        "rude",
        "elliptical",
        "strict",
        "impish"
      ],
      "sleepingDetails": {
        "maxCapacity": 3,
        "amountOfBeds": 3
      },
      "checkInHour": "15:00",
      "checkOutHour": "12:00",
      "distanceFromCityCenterInKM": "9km",
      "contactDetails": {
        "phone": "03-684008-937097-4",
        "email": "Polly21@hotmail.com"
      }
    },
    {
      "id": "ce8d9672-5794-4b46-a6e6-6410f2af9749",
      "venueId": "4b1aeedb-c89f-48b1-9583-332e4f4c828f",
      "location": {
        "postalCode": "15-0851",
        "city": "Lake Constantinshire"
      },
      "pricePerNightInEUR": 3479,
      "rating": 0.2,
      "numberOfReviews": 219,
      "capacity": 11,
      "name": "Bartoletti, Herman and McKenzie",
      "albumId": 325,
      "description": "Omnis voluptatum iusto a reprehenderit voluptatum minima sed aut.\nVoluptatem aperiam consequuntur.\nVoluptas sit praesentium ea necessitatibus placeat quam fuga quaerat.\nId quia placeat sunt cumque.\nAtque debitis eum nesciunt suscipit.",
      "features": [
        "moist",
        "innocent",
        "skinny",
        "sunny"
      ],
      "sleepingDetails": {
        "maxCapacity": 2,
        "amountOfBeds": 1
      },
      "checkInHour": "15:00",
      "checkOutHour": "12:00",
      "distanceFromCityCenterInKM": "9km",
      "contactDetails": {
        "phone": "39-763324-137819-8",
        "email": "Floyd.Fisher89@hotmail.com"
      }
    },
    {
      "id": "2d297d69-730f-4195-a773-fe2abcb82999",
      "venueId": "955d71eb-256d-4077-95aa-3f2d5edd305f",
      "location": {
        "postalCode": "02-0120",
        "city": "Kirlinton"
      },
      "pricePerNightInEUR": 3482,
      "rating": 0.6,
      "numberOfReviews": 191,
      "capacity": 7,
      "name": "Bernhard, O'Conner and Schmitt",
      "albumId": 20,
      "description": "Quod quidem incidunt harum assumenda veritatis laudantium unde eaque.\nConsequuntur ducimus harum dolorem saepe nostrum natus asperiores exercitationem.\nAperiam aspernatur eveniet dicta optio occaecati voluptate vero.\nDolores ad dolores consequuntur similique harum.",
      "features": [
        "flawed",
        "present",
        "snappy",
        "knowing"
      ],
      "sleepingDetails": {
        "maxCapacity": 2,
        "amountOfBeds": 2
      },
      "checkInHour": "15:00",
      "checkOutHour": "12:00",
      "distanceFromCityCenterInKM": "5km",
      "contactDetails": {
        "phone": "50-860037-844491-7",
        "email": "Veronica_Feest0@yahoo.com"
      }
    },
    {
      "id": "c11e1cc8-eb0c-49c7-a6d3-6e8b37b3e4e5",
      "venueId": "b198c6ab-debd-4ba1-8220-fa00496f5d38",
      "location": {
        "postalCode": "56-3687",
        "city": "East Mayworth"
      },
      "pricePerNightInEUR": 3150,
      "rating": 0.4,
      "numberOfReviews": 199,
      "capacity": 6,
      "name": "Murazik, Wilkinson and Kuhlman",
      "albumId": 184,
      "description": "Est possimus consequuntur voluptatibus perspiciatis quis.\nRatione neque temporibus.\nVoluptas iusto labore.",
      "features": [
        "subdued",
        "flowery",
        "nocturnal",
        "snarling"
      ],
      "sleepingDetails": {
        "maxCapacity": 4,
        "amountOfBeds": 1
      },
      "checkInHour": "15:00",
      "checkOutHour": "12:00",
      "distanceFromCityCenterInKM": "10km",
      "contactDetails": {
        "phone": "82-420966-286047-8",
        "email": "Melvina_Gulgowski19@yahoo.com"
      }
    },
    {
      "id": "0b0ca071-f658-4690-9376-d461cff54574",
      "venueId": "8a7765f9-1eea-4a61-b22f-4f238c0c750f",
      "location": {
        "postalCode": "30-8342",
        "city": "Lake Bonnie"
      },
      "pricePerNightInEUR": 4073,
      "rating": 0.4,
      "numberOfReviews": 272,
      "capacity": 10,
      "name": "Roob and Sons",
      "albumId": 62,
      "description": "Quaerat error aliquid magnam deserunt temporibus.\nDicta explicabo quis architecto quos voluptatem.\nExcepturi sapiente quia ducimus non reiciendis nobis numquam labore.\nTenetur consequuntur fuga.\nAb itaque quasi porro.",
      "features": [
        "rural",
        "distant",
        "wonderful",
        "tight"
      ],
      "sleepingDetails": {
        "maxCapacity": 1,
        "amountOfBeds": 2
      },
      "checkInHour": "15:00",
      "checkOutHour": "12:00",
      "distanceFromCityCenterInKM": "5km",
      "contactDetails": {
        "phone": "65-361288-310579-5",
        "email": "Cali.OKon@gmail.com"
      }
    },
    {
      "id": "5b01e683-abf7-4877-8927-ca89d1ece9d6",
      "venueId": "16776cc7-8d14-4e23-87ab-e91be090f999",
      "location": {
        "postalCode": "75-5886",
        "city": "Fort Evangeline"
      },
      "pricePerNightInEUR": 1753,
      "rating": 0.4,
      "numberOfReviews": 246,
      "capacity": 8,
      "name": "Homenick, Lang and Brown",
      "albumId": 190,
      "description": "Culpa id placeat necessitatibus at.\nEarum provident harum tempore voluptatibus ad architecto.\nConsequuntur maxime laudantium.",
      "features": [
        "unsteady",
        "selfish",
        "gregarious",
        "intelligent"
      ],
      "sleepingDetails": {
        "maxCapacity": 3,
        "amountOfBeds": 1
      },
      "checkInHour": "15:00",
      "checkOutHour": "12:00",
      "distanceFromCityCenterInKM": "4km",
      "contactDetails": {
        "phone": "44-391502-101358-0",
        "email": "Deonte_Metz68@hotmail.com"
      }
    },
    {
      "id": "a8e2430e-966b-4f89-b26c-83642ec13cbd",
      "venueId": "0e3659bb-b574-49b5-98c6-3f302e3b9ff0",
      "location": {
        "postalCode": "23-6106",
        "city": "Covina"
      },
      "pricePerNightInEUR": 3020,
      "rating": 0,
      "numberOfReviews": 80,
      "capacity": 1,
      "name": "Medhurst Inc",
      "albumId": 170,
      "description": "Iusto aperiam alias voluptates neque neque accusantium voluptatum id vitae.\nDistinctio rerum non labore nihil sunt corrupti ut nulla.\nHic nesciunt voluptas ducimus exercitationem in saepe aperiam esse.",
      "features": [
        "klutzy",
        "nonstop",
        "limited",
        "showy"
      ],
      "sleepingDetails": {
        "maxCapacity": 2,
        "amountOfBeds": 3
      },
      "checkInHour": "15:00",
      "checkOutHour": "12:00",
      "distanceFromCityCenterInKM": "3km",
      "contactDetails": {
        "phone": "96-087134-511658-8",
        "email": "Ulises13@hotmail.com"
      }
    },
    {
      "id": "e60d0e0c-9c17-47b4-92cf-d4e091d8e289",
      "venueId": "30741a8e-8c59-468e-bd8e-3385c28e25b5",
      "location": {
        "postalCode": "30-8875",
        "city": "Mayertshire"
      },
      "pricePerNightInEUR": 1804,
      "rating": 0.5,
      "numberOfReviews": 70,
      "capacity": 7,
      "name": "Schiller Inc",
      "albumId": 71,
      "description": "Quia voluptatum hic animi tempore aperiam.\nTempora nulla laborum voluptas totam qui.\nQuo ipsa magni.",
      "features": [
        "marvelous",
        "violet",
        "huge",
        "soupy"
      ],
      "sleepingDetails": {
        "maxCapacity": 1,
        "amountOfBeds": 1
      },
      "checkInHour": "15:00",
      "checkOutHour": "12:00",
      "distanceFromCityCenterInKM": "8km",
      "contactDetails": {
        "phone": "36-157324-229250-5",
        "email": "Katlyn0@gmail.com"
      }
    },
    {
      "id": "6ff0479c-f0a1-4a04-8dc2-cda4bbabeb54",
      "venueId": "7b87e12b-b8e7-4f7b-b623-e9efc9764a6b",
      "location": {
        "postalCode": "01-6849",
        "city": "Dimitritown"
      },
      "pricePerNightInEUR": 4518,
      "rating": 0.3,
      "numberOfReviews": 132,
      "capacity": 5,
      "name": "Ritchie Inc",
      "albumId": 78,
      "description": "Rem nihil totam minima repudiandae vero.\nDeserunt atque pariatur.\nDeserunt officiis alias laborum fugiat deleniti inventore.\nIllo deleniti eligendi.\nFuga vero sunt a veritatis doloremque soluta repellendus.",
      "features": [
        "sure-footed",
        "meaty",
        "wicked",
        "single"
      ],
      "sleepingDetails": {
        "maxCapacity": 3,
        "amountOfBeds": 2
      },
      "checkInHour": "15:00",
      "checkOutHour": "12:00",
      "distanceFromCityCenterInKM": "5km",
      "contactDetails": {
        "phone": "45-677401-847982-3",
        "email": "Loma87@hotmail.com"
      }
    },
    {
      "id": "7eada97b-3fa8-47db-b901-3edf3557e942",
      "venueId": "ac4067b9-2002-458e-9987-d1afe880752a",
      "location": {
        "postalCode": "85-7622",
        "city": "Coral Springs"
      },
      "pricePerNightInEUR": 4085,
      "rating": 0.4,
      "numberOfReviews": 46,
      "capacity": 6,
      "name": "Braun, Willms and Steuber",
      "albumId": 201,
      "description": "Ab sequi cum minima tenetur excepturi ea vitae rerum voluptates.\nCulpa quia magnam at saepe mollitia quam impedit labore.\nAssumenda necessitatibus quidem.",
      "features": [
        "dizzy",
        "artistic",
        "each",
        "impressionable"
      ],
      "sleepingDetails": {
        "maxCapacity": 3,
        "amountOfBeds": 4
      },
      "checkInHour": "15:00",
      "checkOutHour": "12:00",
      "distanceFromCityCenterInKM": "5km",
      "contactDetails": {
        "phone": "72-609269-076997-1",
        "email": "Russel50@yahoo.com"
      }
    },
    {
      "id": "98752bcc-f857-4ee5-958e-72c9e42e691f",
      "venueId": "9de4b442-463c-42ad-a76c-46940bfd7f41",
      "location": {
        "postalCode": "01-6580",
        "city": "Wilfredhaven"
      },
      "pricePerNightInEUR": 1142,
      "rating": 1,
      "numberOfReviews": 188,
      "capacity": 19,
      "name": "Wilderman - Ward",
      "albumId": 373,
      "description": "Eaque eaque iste alias numquam nihil ducimus sequi exercitationem itaque.\nEius iusto necessitatibus mollitia asperiores exercitationem placeat sapiente quia.\nEt reiciendis perferendis iure quo eum quo beatae quia.",
      "features": [
        "kosher",
        "big-hearted",
        "hopeful",
        "mortified"
      ],
      "sleepingDetails": {
        "maxCapacity": 4,
        "amountOfBeds": 2
      },
      "checkInHour": "15:00",
      "checkOutHour": "12:00",
      "distanceFromCityCenterInKM": "4km",
      "contactDetails": {
        "phone": "85-568936-823271-2",
        "email": "Marge.Rice-Wintheiser71@gmail.com"
      }
    },
    {
      "id": "a36c5d68-c7a9-4aff-a723-af6fc7914240",
      "venueId": "5646f570-0959-458e-ac5a-bdb5e103fa1f",
      "location": {
        "postalCode": "61-6949",
        "city": "South Ryann"
      },
      "pricePerNightInEUR": 1487,
      "rating": 0.8,
      "numberOfReviews": 201,
      "capacity": 9,
      "name": "Schaden - Durgan",
      "albumId": 5,
      "description": "Accusamus eligendi expedita recusandae quisquam odio esse iusto.\nDolorum sequi quis.\nVoluptates tenetur eius quidem sit quas facere.\nEius hic voluptate culpa quibusdam veritatis totam pariatur quas.",
      "features": [
        "awesome",
        "lavish",
        "cumbersome",
        "clean"
      ],
      "sleepingDetails": {
        "maxCapacity": 1,
        "amountOfBeds": 1
      },
      "checkInHour": "15:00",
      "checkOutHour": "12:00",
      "distanceFromCityCenterInKM": "10km",
      "contactDetails": {
        "phone": "88-448731-373328-9",
        "email": "Glenna.Fadel87@gmail.com"
      }
    },
    {
      "id": "54f71513-1d5e-4213-80e6-6fc91f818db7",
      "venueId": "55ee5420-4062-4198-abef-780c4b37b706",
      "location": {
        "postalCode": "88-3321",
        "city": "Fort Elwynfurt"
      },
      "pricePerNightInEUR": 789,
      "rating": 0.9,
      "numberOfReviews": 148,
      "capacity": 2,
      "name": "Moen, Larson and Pagac",
      "albumId": 344,
      "description": "Alias doloremque aut libero voluptate quos.\nEa ducimus alias similique laudantium quam ab amet.\nLaudantium inventore deserunt.\nNatus sit mollitia.\nNesciunt ipsa veritatis repellendus ex error dolorum.",
      "features": [
        "made-up",
        "qualified",
        "full",
        "useful"
      ],
      "sleepingDetails": {
        "maxCapacity": 4,
        "amountOfBeds": 4
      },
      "checkInHour": "15:00",
      "checkOutHour": "12:00",
      "distanceFromCityCenterInKM": "8km",
      "contactDetails": {
        "phone": "41-584855-440370-0",
        "email": "Penelope_Schuster@yahoo.com"
      }
    },
    {
      "id": "2b16d385-b709-43ef-9d83-047897c40e4a",
      "venueId": "07ec84f6-23b9-4b0a-8f11-79f478bbc970",
      "location": {
        "postalCode": "92-8749",
        "city": "Port Asachester"
      },
      "pricePerNightInEUR": 1972,
      "rating": 0.4,
      "numberOfReviews": 58,
      "capacity": 19,
      "name": "Murazik - Wolf",
      "albumId": 266,
      "description": "Dolorem doloribus aperiam a.\nNatus fuga fuga voluptates reiciendis harum officiis dolores accusantium cupiditate.\nRatione amet omnis provident amet eius ut illum.\nQuam optio voluptate ex accusantium.\nDignissimos dolore esse veniam eligendi quod incidunt magnam.",
      "features": [
        "granular",
        "rotten",
        "grubby",
        "sparse"
      ],
      "sleepingDetails": {
        "maxCapacity": 3,
        "amountOfBeds": 4
      },
      "checkInHour": "15:00",
      "checkOutHour": "12:00",
      "distanceFromCityCenterInKM": "3km",
      "contactDetails": {
        "phone": "52-381985-680903-4",
        "email": "Enoch40@gmail.com"
      }
    },
    {
      "id": "3ac1c9a0-e84d-4d99-8396-a698a21d790f",
      "venueId": "ddb06b20-8b6f-400b-88fd-78ec7e037842",
      "location": {
        "postalCode": "50-5421",
        "city": "Oshkosh"
      },
      "pricePerNightInEUR": 931,
      "rating": 0.5,
      "numberOfReviews": 2,
      "capacity": 2,
      "name": "Stanton, Lubowitz and Bosco",
      "albumId": 282,
      "description": "Tempora fugiat impedit architecto at.\nSequi mollitia consequuntur.\nQuis dolorum rerum cum nisi quos rerum modi fugit neque.\nDolores asperiores molestiae impedit aspernatur.\nNulla soluta dicta dicta sit ipsam distinctio tenetur cumque.",
      "features": [
        "ideal",
        "worthwhile",
        "fearful",
        "distorted"
      ],
      "sleepingDetails": {
        "maxCapacity": 1,
        "amountOfBeds": 1
      },
      "checkInHour": "15:00",
      "checkOutHour": "12:00",
      "distanceFromCityCenterInKM": "8km",
      "contactDetails": {
        "phone": "73-358267-367233-4",
        "email": "Neal_Walter@gmail.com"
      }
    },
    {
      "id": "ea1c5580-a219-4b6a-b981-ac45d6332af3",
      "venueId": "8b41ea49-140e-4af0-8336-1b6cc7912f61",
      "location": {
        "postalCode": "31-3279",
        "city": "Blazechester"
      },
      "pricePerNightInEUR": 4040,
      "rating": 0.6,
      "numberOfReviews": 244,
      "capacity": 9,
      "name": "Raynor Inc",
      "albumId": 176,
      "description": "Laborum facere inventore odit doloribus magni fugiat ad.\nMolestiae amet earum enim quasi neque eveniet reiciendis velit voluptatum.\nAutem quia hic quo inventore earum quasi dolorem.\nSapiente officiis fugit voluptas commodi unde soluta.\nMagnam quidem eligendi.",
      "features": [
        "thunderous",
        "perfect",
        "gentle",
        "well-off"
      ],
      "sleepingDetails": {
        "maxCapacity": 2,
        "amountOfBeds": 1
      },
      "checkInHour": "15:00",
      "checkOutHour": "12:00",
      "distanceFromCityCenterInKM": "2km",
      "contactDetails": {
        "phone": "81-656307-447214-4",
        "email": "Mallie_Kuphal@yahoo.com"
      }
    },
    {
      "id": "b8d50bc3-7eb0-4683-ac88-87d2d7fd0611",
      "venueId": "68aeccce-9cf2-4974-88c0-2f8f62ec5dc3",
      "location": {
        "postalCode": "32-8313",
        "city": "Belleton"
      },
      "pricePerNightInEUR": 3021,
      "rating": 0.7,
      "numberOfReviews": 183,
      "capacity": 8,
      "name": "Kemmer, O'Connell and Block",
      "albumId": 291,
      "description": "Atque illum libero vitae dolores eaque exercitationem animi similique.\nAd error molestias tempore quidem blanditiis cumque.\nIncidunt cumque voluptates assumenda sapiente.",
      "features": [
        "humming",
        "perky",
        "easy",
        "long"
      ],
      "sleepingDetails": {
        "maxCapacity": 2,
        "amountOfBeds": 2
      },
      "checkInHour": "15:00",
      "checkOutHour": "12:00",
      "distanceFromCityCenterInKM": "9km",
      "contactDetails": {
        "phone": "48-635534-677256-0",
        "email": "Isabel.Treutel-Haag@gmail.com"
      }
    },
    {
      "id": "21e8eeb4-8a4a-4d77-956a-a21ba81d8384",
      "venueId": "3e85d514-008c-4bb1-98d0-a32c2653e0b0",
      "location": {
        "postalCode": "13-3624",
        "city": "Largo"
      },
      "pricePerNightInEUR": 1664,
      "rating": 0.5,
      "numberOfReviews": 190,
      "capacity": 3,
      "name": "Feil Inc",
      "albumId": 50,
      "description": "Fugit sapiente fugit quidem repellendus doloribus.\nAperiam adipisci quas molestiae tempore magnam labore magnam labore.\nQuisquam reiciendis similique veritatis labore voluptatibus labore.",
      "features": [
        "frizzy",
        "moist",
        "common",
        "kind"
      ],
      "sleepingDetails": {
        "maxCapacity": 2,
        "amountOfBeds": 1
      },
      "checkInHour": "15:00",
      "checkOutHour": "12:00",
      "distanceFromCityCenterInKM": "10km",
      "contactDetails": {
        "phone": "83-638848-286245-4",
        "email": "Kaela_Stiedemann35@yahoo.com"
      }
    },
    {
      "id": "1533edb9-5ead-405d-a7d5-2f7ac7d38f9f",
      "venueId": "129fb020-2664-4293-9dab-f1c5102f08c4",
      "location": {
        "postalCode": "63-7227",
        "city": "Lake Alison"
      },
      "pricePerNightInEUR": 4905,
      "rating": 0,
      "numberOfReviews": 242,
      "capacity": 15,
      "name": "Mertz, Stark and Muller",
      "albumId": 68,
      "description": "Officiis natus esse quae quos incidunt voluptatum quidem numquam.\nId optio deserunt modi.\nQuibusdam soluta eligendi nisi.",
      "features": [
        "showy",
        "beautiful",
        "delirious",
        "muted"
      ],
      "sleepingDetails": {
        "maxCapacity": 3,
        "amountOfBeds": 4
      },
      "checkInHour": "15:00",
      "checkOutHour": "12:00",
      "distanceFromCityCenterInKM": "10km",
      "contactDetails": {
        "phone": "85-470101-575578-8",
        "email": "Pierce63@yahoo.com"
      }
    },
    {
      "id": "88a06483-d201-470b-8d61-d20c4bbe9619",
      "venueId": "643e15f3-3802-4673-babb-75b28afd4ac3",
      "location": {
        "postalCode": "53-8653",
        "city": "West Orieport"
      },
      "pricePerNightInEUR": 4013,
      "rating": 0.4,
      "numberOfReviews": 228,
      "capacity": 7,
      "name": "Wyman Inc",
      "albumId": 125,
      "description": "Dolorum quo recusandae at aliquid.\nIpsam harum aut fugiat rerum repellendus cum ullam.\nAnimi culpa eligendi nesciunt velit aliquam beatae enim recusandae iste.\nCorrupti similique aliquam quae porro porro ducimus.\nVelit temporibus ad aperiam asperiores quas natus blanditiis.",
      "features": [
        "potable",
        "spotless",
        "little",
        "first"
      ],
      "sleepingDetails": {
        "maxCapacity": 4,
        "amountOfBeds": 4
      },
      "checkInHour": "15:00",
      "checkOutHour": "12:00",
      "distanceFromCityCenterInKM": "8km",
      "contactDetails": {
        "phone": "99-901355-379509-3",
        "email": "Elijah70@hotmail.com"
      }
    },
    {
      "id": "f03dfc34-f992-42bc-bf42-b9020fcbd12d",
      "venueId": "3e39b72c-3af8-4afa-a0b9-f317ca25a6a6",
      "location": {
        "postalCode": "55-2036",
        "city": "Stokeshaven"
      },
      "pricePerNightInEUR": 3318,
      "rating": 0.3,
      "numberOfReviews": 172,
      "capacity": 7,
      "name": "Medhurst and Sons",
      "albumId": 258,
      "description": "Quaerat modi occaecati illo fuga perferendis.\nIpsa quam harum perferendis dolor dicta ducimus.\nMinus libero alias.\nReiciendis impedit quo.\nNemo nobis eos voluptatem nam dolores.",
      "features": [
        "mediocre",
        "legitimate",
        "passionate",
        "positive"
      ],
      "sleepingDetails": {
        "maxCapacity": 4,
        "amountOfBeds": 1
      },
      "checkInHour": "15:00",
      "checkOutHour": "12:00",
      "distanceFromCityCenterInKM": "7km",
      "contactDetails": {
        "phone": "48-265357-340711-4",
        "email": "Lexi.Reinger@hotmail.com"
      }
    },
    {
      "id": "d9b4998a-9e5b-4f40-8d0c-11a978933797",
      "venueId": "a1f7d58a-9fd6-404b-939f-58480fc111e4",
      "location": {
        "postalCode": "68-0668",
        "city": "Port Lincoln"
      },
      "pricePerNightInEUR": 1921,
      "rating": 0.3,
      "numberOfReviews": 274,
      "capacity": 12,
      "name": "Connelly Group",
      "albumId": 178,
      "description": "Facere dolorum eius atque inventore dicta facere blanditiis modi sequi.\nCupiditate aut labore quibusdam omnis nemo eos harum.\nCommodi voluptatem ab veniam distinctio id cumque quia corrupti.\nAdipisci ea iusto reiciendis fugiat minus.",
      "features": [
        "well-made",
        "sick",
        "noisy",
        "unnatural"
      ],
      "sleepingDetails": {
        "maxCapacity": 2,
        "amountOfBeds": 3
      },
      "checkInHour": "15:00",
      "checkOutHour": "12:00",
      "distanceFromCityCenterInKM": "7km",
      "contactDetails": {
        "phone": "64-587394-585678-0",
        "email": "Jovani_Zemlak@gmail.com"
      }
    },
    {
      "id": "6b5b7484-4707-4734-9a46-9027cd89c9f3",
      "venueId": "ac8017e5-792c-4f86-aa47-9250c6d9e8cd",
      "location": {
        "postalCode": "76-4543",
        "city": "Bednarboro"
      },
      "pricePerNightInEUR": 1685,
      "rating": 1,
      "numberOfReviews": 249,
      "capacity": 10,
      "name": "Kuphal - Thiel",
      "albumId": 382,
      "description": "Consequatur ea beatae eveniet error repellendus nihil deleniti dolore commodi.\nVoluptatibus ut nemo laboriosam numquam consequuntur.\nRecusandae repellendus accusantium molestiae excepturi tempore dolore pariatur.",
      "features": [
        "neat",
        "yearly",
        "ornery",
        "organic"
      ],
      "sleepingDetails": {
        "maxCapacity": 2,
        "amountOfBeds": 1
      },
      "checkInHour": "15:00",
      "checkOutHour": "12:00",
      "distanceFromCityCenterInKM": "3km",
      "contactDetails": {
        "phone": "39-470773-514169-3",
        "email": "Brown.Collins85@gmail.com"
      }
    },
    {
      "id": "29845319-7559-4103-8821-a83d5f2164ba",
      "venueId": "915b3579-47c7-4b62-aaa2-14494011c6be",
      "location": {
        "postalCode": "92-6037",
        "city": "Creolachester"
      },
      "pricePerNightInEUR": 3107,
      "rating": 0.3,
      "numberOfReviews": 156,
      "capacity": 18,
      "name": "Shields Inc",
      "albumId": 345,
      "description": "Dolor porro impedit sapiente ratione non commodi perspiciatis.\nCorrupti eligendi aut.\nAutem amet libero esse voluptas repellendus error natus harum tenetur.",
      "features": [
        "kind",
        "shiny",
        "worthy",
        "terrible"
      ],
      "sleepingDetails": {
        "maxCapacity": 1,
        "amountOfBeds": 4
      },
      "checkInHour": "15:00",
      "checkOutHour": "12:00",
      "distanceFromCityCenterInKM": "6km",
      "contactDetails": {
        "phone": "94-725721-377783-4",
        "email": "Verner_Mosciski@yahoo.com"
      }
    },
    {
      "id": "66e883e6-ee8a-45aa-a5c2-0902ff729a75",
      "venueId": "64a378a9-19f3-41c5-965d-7ef418e017f6",
      "location": {
        "postalCode": "33-1776",
        "city": "Eldridgefurt"
      },
      "pricePerNightInEUR": 2016,
      "rating": 0.6,
      "numberOfReviews": 53,
      "capacity": 3,
      "name": "Dach - Prosacco",
      "albumId": 325,
      "description": "Ut voluptate ipsam.\nError cupiditate eos sequi vero atque quas consequuntur.\nRerum pariatur rem hic magni necessitatibus culpa tempore enim.\nIste repellat nulla sed provident perferendis fugiat placeat dolor.\nSequi hic in a reprehenderit corrupti tempore dicta.",
      "features": [
        "ringed",
        "expert",
        "eminent",
        "purple"
      ],
      "sleepingDetails": {
        "maxCapacity": 1,
        "amountOfBeds": 2
      },
      "checkInHour": "15:00",
      "checkOutHour": "12:00",
      "distanceFromCityCenterInKM": "6km",
      "contactDetails": {
        "phone": "31-545536-220457-6",
        "email": "Crystal_Christiansen47@hotmail.com"
      }
    },
    {
      "id": "7e47662d-3509-49bd-986e-7edf962cd175",
      "venueId": "b290b0e0-c0c7-48cc-9221-df8430f9d3c5",
      "location": {
        "postalCode": "90-9772",
        "city": "Port Solon"
      },
      "pricePerNightInEUR": 2028,
      "rating": 0.7,
      "numberOfReviews": 57,
      "capacity": 1,
      "name": "Bauch - Franecki",
      "albumId": 117,
      "description": "Quam reprehenderit quis cumque rem quas deleniti blanditiis dolorum.\nQuam odit dolorem nam.\nRem odit asperiores hic aut nulla repellat.\nOmnis atque nesciunt maiores vitae.\nRepellat porro mollitia asperiores nesciunt quasi.",
      "features": [
        "plump",
        "brilliant",
        "vicious",
        "carefree"
      ],
      "sleepingDetails": {
        "maxCapacity": 3,
        "amountOfBeds": 2
      },
      "checkInHour": "15:00",
      "checkOutHour": "12:00",
      "distanceFromCityCenterInKM": "9km",
      "contactDetails": {
        "phone": "90-198206-828091-5",
        "email": "Greyson.Kling@gmail.com"
      }
    },
    {
      "id": "bbb16eaf-7cef-424c-b774-42b5a502a4f5",
      "venueId": "e15d5301-1fca-4aaf-84ff-173ad8cbed40",
      "location": {
        "postalCode": "60-4768",
        "city": "Jarretworth"
      },
      "pricePerNightInEUR": 406,
      "rating": 0.7,
      "numberOfReviews": 298,
      "capacity": 18,
      "name": "Padberg - Gutkowski",
      "albumId": 87,
      "description": "Earum rem perferendis labore dolor unde esse provident voluptatum reprehenderit.\nSapiente rem in labore et itaque.\nIllum soluta quos id eius velit.\nIllum eos laudantium expedita at.",
      "features": [
        "miserable",
        "aggravating",
        "swift",
        "variable"
      ],
      "sleepingDetails": {
        "maxCapacity": 4,
        "amountOfBeds": 3
      },
      "checkInHour": "15:00",
      "checkOutHour": "12:00",
      "distanceFromCityCenterInKM": "8km",
      "contactDetails": {
        "phone": "65-738352-086290-1",
        "email": "Casimir_Aufderhar@hotmail.com"
      }
    },
    {
      "id": "411e4ab2-d80f-4a5c-b346-5a60c4681870",
      "venueId": "4fd48766-ea78-443e-8bb5-38b415585302",
      "location": {
        "postalCode": "22-9358",
        "city": "Sunnyvale"
      },
      "pricePerNightInEUR": 405,
      "rating": 0.4,
      "numberOfReviews": 66,
      "capacity": 10,
      "name": "Ziemann - Wolff",
      "albumId": 254,
      "description": "Cumque iure dolor quidem veritatis nisi harum consectetur officiis.\nAccusantium dignissimos veniam quis.\nConsequatur libero eaque ratione laborum.\nAliquid molestiae facere dignissimos.\nNemo pariatur nihil consequuntur vel quam.",
      "features": [
        "strict",
        "naive",
        "esteemed",
        "frilly"
      ],
      "sleepingDetails": {
        "maxCapacity": 1,
        "amountOfBeds": 3
      },
      "checkInHour": "15:00",
      "checkOutHour": "12:00",
      "distanceFromCityCenterInKM": "3km",
      "contactDetails": {
        "phone": "23-956495-467951-8",
        "email": "Juston.Turner44@gmail.com"
      }
    },
    {
      "id": "df0a4d65-8786-4337-b553-5474fe6a5510",
      "venueId": "36b06f0b-0b67-4dde-a876-e217867fd47e",
      "location": {
        "postalCode": "07-2786",
        "city": "West Rebecaborough"
      },
      "pricePerNightInEUR": 2690,
      "rating": 0.2,
      "numberOfReviews": 141,
      "capacity": 13,
      "name": "Rohan - Bartoletti",
      "albumId": 222,
      "description": "Aut quae fugiat quam eveniet dignissimos explicabo debitis alias.\nAssumenda voluptatum dolorum quia consequuntur.\nDeleniti pariatur fugiat aliquam ea soluta.",
      "features": [
        "harmful",
        "partial",
        "unwelcome",
        "pesky"
      ],
      "sleepingDetails": {
        "maxCapacity": 3,
        "amountOfBeds": 4
      },
      "checkInHour": "15:00",
      "checkOutHour": "12:00",
      "distanceFromCityCenterInKM": "7km",
      "contactDetails": {
        "phone": "11-140390-818890-9",
        "email": "Mathilde_Corwin28@hotmail.com"
      }
    }
  ]
}


